{"businesses":[{"id":"N8TBIDZwEaWm9czkF9Ncdw","alias":"the-grove-cafe-and-market-albuquerque","name":"The Grove Cafe & Market","image_url":"https://s3-media3.fl.yelpcdn.com/bphoto/FY8GjfG71hD2nZL3LbNOJA/o.jpg","is_closed":false,"url":"https://www.yelp.com/biz/the-grove-cafe-and-market-albuquerque?adjust_creative=gtw0huIWlUOiqWb7M4oBqQ&utm_campaign=yelp_api_v3&utm_medium=api_v3_business_search&utm_source=gtw0huIWlUOiqWb7M4oBqQ","review_count":1467,"categories":[{"alias":"coffee","title":"Coffee & Tea"},{"alias":"newamerican","title":"American (New)"},{"alias":"cafes","title":"Cafes"}],"rating":4.5,"coordinates":{"latitude":35.0828,"longitude":-106.6404699},"transactions":["delivery"],"price":"$$","location":{"address1":"600 Central Ave SE","address2":"Ste A","address3":"","city":"Albuquerque","zip_code":"87102","country":"US","state":"NM","display_address":["600 Central Ave SE","Ste A","Albuquerque, NM 87102"]},"phone":"+15052489800","display_phone":"(505) 248-9800","distance":4781.3446831488045},{"id":"PcRRGbNIGQ-n3-qXs3pVfA","alias":"golden-crown-panaderia-albuquerque","name":"Golden Crown Panaderia","image_url":"https://s3-media3.fl.yelpcdn.com/bphoto/MR19EHXba8DxN5A-uHVjqw/o.jpg","is_closed":false,"url":"https://www.yelp.com/biz/golden-crown-panaderia-albuquerque?adjust_creative=gtw0huIWlUOiqWb7M4oBqQ&utm_campaign=yelp_api_v3&utm_medium=api_v3_business_search&utm_source=gtw0huIWlUOiqWb7M4oBqQ","review_count":708,"categories":[{"alias":"bakeries","title":"Bakeries"},{"alias":"coffee","title":"Coffee & Tea"},{"alias":"pizza","title":"Pizza"}],"rating":4.5,"coordinates":{"latitude":35.0957207234847,"longitude":-106.658451885088},"transactions":["delivery","pickup"],"price":"$$","location":{"address1":"1103 Mountain Rd NW","address2":"","address3":"","city":"Albuquerque","zip_code":"87102","country":"US","state":"NM","display_address":["1103 Mountain Rd NW","Albuquerque, NM 87102"]},"phone":"+15052432424","display_phone":"(505) 243-2424","distance":5262.964736693889},{"id":"fcxkjHX7vLKe6BMqeLJ5wg","alias":"tia-bs-la-waffleria-albuquerque","name":"Tia B's La Waffleria","image_url":"https://s3-media3.fl.yelpcdn.com/bphoto/jfMc0IGHEmUYaNfo862V7A/o.jpg","is_closed":false,"url":"https://www.yelp.com/biz/tia-bs-la-waffleria-albuquerque?adjust_creative=gtw0huIWlUOiqWb7M4oBqQ&utm_campaign=yelp_api_v3&utm_medium=api_v3_business_search&utm_source=gtw0huIWlUOiqWb7M4oBqQ","review_count":690,"categories":[{"alias":"breakfast_brunch","title":"Breakfast & Brunch"},{"alias":"coffee","title":"Coffee & Tea"}],"rating":4,"coordinates":{"latitude":35.0803681,"longitude":-106.6051949},"transactions":["delivery"],"price":"$$","location":{"address1":"3710 Campus Blvd NE","address2":"","address3":"","city":"Albuquerque","zip_code":"87106","country":"US","state":"NM","display_address":["3710 Campus Blvd NE","Albuquerque, NM 87106"]},"phone":"+15054922007","display_phone":"(505) 492-2007","distance":3888.4915424778774},{"id":"3DovfzfBpz8RuTXYe-JQLQ","alias":"central-grill-and-coffee-house-albuquerque","name":"Central Grill and Coffee House","image_url":"https://s3-media1.fl.yelpcdn.com/bphoto/OBpmfxbIHFsOZ9t-b4tTVQ/o.jpg","is_closed":false,"url":"https://www.yelp.com/biz/central-grill-and-coffee-house-albuquerque?adjust_creative=gtw0huIWlUOiqWb7M4oBqQ&utm_campaign=yelp_api_v3&utm_medium=api_v3_business_search&utm_source=gtw0huIWlUOiqWb7M4oBqQ","review_count":1159,"categories":[{"alias":"coffee","title":"Coffee & Tea"},{"alias":"sandwiches","title":"Sandwiches"},{"alias":"breakfast_brunch","title":"Breakfast & Brunch"}],"rating":4.5,"coordinates":{"latitude":35.094386180335256,"longitude":-106.67068121027614},"transactions":["delivery","pickup"],"price":"$$","location":{"address1":"2056 Central Ave SW","address2":"","address3":"","city":"Albuquerque","zip_code":"87104","country":"US","state":"NM","display_address":["2056 Central Ave SW","Albuquerque, NM 87104"]},"phone":"+15055541424","display_phone":"(505) 554-1424","distance":6345.339829540766},{"id":"sIalQpJmlZrvQm6oqocJsA","alias":"tia-betty-blues-albuquerque","name":"Tia Betty Blue's","image_url":"https://s3-media2.fl.yelpcdn.com/bphoto/OWiMWhjAZDince47weBNhQ/o.jpg","is_closed":false,"url":"https://www.yelp.com/biz/tia-betty-blues-albuquerque?adjust_creative=gtw0huIWlUOiqWb7M4oBqQ&utm_campaign=yelp_api_v3&utm_medium=api_v3_business_search&utm_source=gtw0huIWlUOiqWb7M4oBqQ","review_count":698,"categories":[{"alias":"coffee","title":"Coffee & Tea"},{"alias":"breakfast_brunch","title":"Breakfast & Brunch"},{"alias":"newmexican","title":"New Mexican Cuisine"}],"rating":4.5,"coordinates":{"latitude":35.0622210813679,"longitude":-106.586007536771},"transactions":["delivery"],"price":"$$","location":{"address1":"1248 San Mateo Blvd SE","address2":"","address3":"","city":"Albuquerque","zip_code":"87108","country":"US","state":"NM","display_address":["1248 San Mateo Blvd SE","Albuquerque, NM 87108"]},"phone":"+15052681955","display_phone":"(505) 268-1955","distance":6174.365058028668},{"id":"Yx3-d3hEzMomPE5Q-Av0pA","alias":"trifecta-coffee-company-albuquerque","name":"Trifecta Coffee Company","image_url":"https://s3-media1.fl.yelpcdn.com/bphoto/dcWtESIAo-_oVnu0FGM_7Q/o.jpg","is_closed":false,"url":"https://www.yelp.com/biz/trifecta-coffee-company-albuquerque?adjust_creative=gtw0huIWlUOiqWb7M4oBqQ&utm_campaign=yelp_api_v3&utm_medium=api_v3_business_search&utm_source=gtw0huIWlUOiqWb7M4oBqQ","review_count":240,"categories":[{"alias":"coffee","title":"Coffee & Tea"},{"alias":"bakeries","title":"Bakeries"},{"alias":"coffeeroasteries","title":"Coffee Roasteries"}],"rating":4.5,"coordinates":{"latitude":35.1367835998535,"longitude":-106.626495361328},"transactions":[],"price":"$$","location":{"address1":"413 Montano Rd NE","address2":"Ste F","address3":"","city":"Albuquerque","zip_code":"87107","country":"US","state":"NM","display_address":["413 Montano Rd NE","Ste F","Albuquerque, NM 87107"]},"phone":"+15058007081","display_phone":"(505) 800-7081","distance":3044.595994840179},{"id":"aLbjIW0aTeVPvzvIcGkjFA","alias":"cutbow-coffee-roastology-albuquerque","name":"Cutbow Coffee Roastology","image_url":"https://s3-media4.fl.yelpcdn.com/bphoto/IDxr_5CBLTMmeCPZZWPjIQ/o.jpg","is_closed":false,"url":"https://www.yelp.com/biz/cutbow-coffee-roastology-albuquerque?adjust_creative=gtw0huIWlUOiqWb7M4oBqQ&utm_campaign=yelp_api_v3&utm_medium=api_v3_business_search&utm_source=gtw0huIWlUOiqWb7M4oBqQ","review_count":243,"categories":[{"alias":"coffeeroasteries","title":"Coffee Roasteries"},{"alias":"coffee","title":"Coffee & Tea"}],"rating":5,"coordinates":{"latitude":35.107347727896,"longitude":-106.670928150415},"transactions":["delivery"],"price":"$$","location":{"address1":"1208 Rio Grande Blvd NW","address2":"","address3":null,"city":"Albuquerque","zip_code":"87104","country":"US","state":"NM","display_address":["1208 Rio Grande Blvd NW","Albuquerque, NM 87104"]},"phone":"+15053555563","display_phone":"(505) 355-5563","distance":5990.5115109182925},{"id":"Puz2qP-tvCJWxVGK4FPl0w","alias":"the-farmacy-albuquerque","name":"The Farmacy","image_url":"https://s3-media1.fl.yelpcdn.com/bphoto/Jn7M6EUl0NB_i4F8ymRULw/o.jpg","is_closed":false,"url":"https://www.yelp.com/biz/the-farmacy-albuquerque?adjust_creative=gtw0huIWlUOiqWb7M4oBqQ&utm_campaign=yelp_api_v3&utm_medium=api_v3_business_search&utm_source=gtw0huIWlUOiqWb7M4oBqQ","review_count":650,"categories":[{"alias":"coffee","title":"Coffee & Tea"},{"alias":"breakfast_brunch","title":"Breakfast & Brunch"},{"alias":"sandwiches","title":"Sandwiches"}],"rating":4.5,"coordinates":{"latitude":35.07938,"longitude":-106.60244},"transactions":["delivery"],"price":"$$","location":{"address1":"3718 Central Ave SE","address2":null,"address3":"","city":"Albuquerque","zip_code":"87108","country":"US","state":"NM","display_address":["3718 Central Ave SE","Albuquerque, NM 87108"]},"phone":"+15052270330","display_phone":"(505) 227-0330","distance":4017.368207958318},{"id":"TCOm9eQ0Vuhddj0IpdONDw","alias":"sueños-coffee-albuquerque-4","name":"Sueños Coffee","image_url":"https://s3-media1.fl.yelpcdn.com/bphoto/2oWPKpLD5ld2MZMWO5fqiA/o.jpg","is_closed":false,"url":"https://www.yelp.com/biz/sue%C3%B1os-coffee-albuquerque-4?adjust_creative=gtw0huIWlUOiqWb7M4oBqQ&utm_campaign=yelp_api_v3&utm_medium=api_v3_business_search&utm_source=gtw0huIWlUOiqWb7M4oBqQ","review_count":25,"categories":[{"alias":"coffee","title":"Coffee & Tea"},{"alias":"sandwiches","title":"Sandwiches"}],"rating":5,"coordinates":{"latitude":35.08459163587628,"longitude":-106.64511884949636},"transactions":[],"location":{"address1":"101 Broadway Blvd NE","address2":"","address3":null,"city":"Albuquerque","zip_code":"87102","country":"US","state":"NM","display_address":["101 Broadway Blvd NE","Albuquerque, NM 87102"]},"phone":"+15055546175","display_phone":"(505) 554-6175","distance":4947.932246988038},{"id":"A7kZPmAkSitxqYHI1lmCjQ","alias":"little-bear-coffee-albuquerque","name":"Little Bear Coffee","image_url":"https://s3-media1.fl.yelpcdn.com/bphoto/8FL6zcp1lpDUA-aHLiZghA/o.jpg","is_closed":false,"url":"https://www.yelp.com/biz/little-bear-coffee-albuquerque?adjust_creative=gtw0huIWlUOiqWb7M4oBqQ&utm_campaign=yelp_api_v3&utm_medium=api_v3_business_search&utm_source=gtw0huIWlUOiqWb7M4oBqQ","review_count":251,"categories":[{"alias":"coffee","title":"Coffee & Tea"}],"rating":4.5,"coordinates":{"latitude":35.1107630209977,"longitude":-106.559432986404},"transactions":["delivery"],"price":"$$","location":{"address1":"2632 Pennsylvania St NE","address2":"","address3":null,"city":"Albuquerque","zip_code":"87110","country":"US","state":"NM","display_address":["2632 Pennsylvania St NE","Albuquerque, NM 87110"]},"phone":"+15059178902","display_phone":"(505) 917-8902","distance":4247.874373715413},{"id":"xF2h3ZCFNFWS3h38HqIOwQ","alias":"the-shop-albuquerque-3","name":"The Shop","image_url":"https://s3-media2.fl.yelpcdn.com/bphoto/aDxvmA97peHsRCatCAl-OA/o.jpg","is_closed":false,"url":"https://www.yelp.com/biz/the-shop-albuquerque-3?adjust_creative=gtw0huIWlUOiqWb7M4oBqQ&utm_campaign=yelp_api_v3&utm_medium=api_v3_business_search&utm_source=gtw0huIWlUOiqWb7M4oBqQ","review_count":343,"categories":[{"alias":"breakfast_brunch","title":"Breakfast & Brunch"},{"alias":"coffee","title":"Coffee & Tea"},{"alias":"diners","title":"Diners"}],"rating":4,"coordinates":{"latitude":35.0816695744646,"longitude":-106.612498457672},"transactions":["delivery"],"price":"$$","location":{"address1":"2933 Monte Vista Blvd NE","address2":"","address3":"","city":"Albuquerque","zip_code":"87106","country":"US","state":"NM","display_address":["2933 Monte Vista Blvd NE","Albuquerque, NM 87106"]},"phone":"+15054332795","display_phone":"(505) 433-2795","distance":3792.6926853106993},{"id":"pPYB5x2SbVbrbQ25wNacIw","alias":"chocolatedude-albuquerque-3","name":"ChocolateDude","image_url":"https://s3-media3.fl.yelpcdn.com/bphoto/7zJzcke77oCi6bTdmVEtYg/o.jpg","is_closed":false,"url":"https://www.yelp.com/biz/chocolatedude-albuquerque-3?adjust_creative=gtw0huIWlUOiqWb7M4oBqQ&utm_campaign=yelp_api_v3&utm_medium=api_v3_business_search&utm_source=gtw0huIWlUOiqWb7M4oBqQ","review_count":186,"categories":[{"alias":"coffee","title":"Coffee & Tea"},{"alias":"chocolate","title":"Chocolatiers & Shops"},{"alias":"macarons","title":"Macarons"}],"rating":4.5,"coordinates":{"latitude":35.0805,"longitude":-106.60765},"transactions":["delivery"],"price":"$","location":{"address1":"3339 Central Ave NE","address2":"Ste E","address3":"","city":"Albuquerque","zip_code":"87106","country":"US","state":"NM","display_address":["3339 Central Ave NE","Ste E","Albuquerque, NM 87106"]},"phone":"+15056395502","display_phone":"(505) 639-5502","distance":3878.59188881871},{"id":"fUVNhPNKGL-m_3BfZ5WeZg","alias":"zendo-albuquerque","name":"Zendo","image_url":"https://s3-media2.fl.yelpcdn.com/bphoto/RsFR6H48vHY4TajPF-_v2g/o.jpg","is_closed":false,"url":"https://www.yelp.com/biz/zendo-albuquerque?adjust_creative=gtw0huIWlUOiqWb7M4oBqQ&utm_campaign=yelp_api_v3&utm_medium=api_v3_business_search&utm_source=gtw0huIWlUOiqWb7M4oBqQ","review_count":277,"categories":[{"alias":"coffee","title":"Coffee & Tea"}],"rating":4.5,"coordinates":{"latitude":35.08069508768077,"longitude":-106.6500024942201},"transactions":["delivery"],"price":"$$","location":{"address1":"413 2nd St SW","address2":"","address3":"","city":"Albuquerque","zip_code":"87102","country":"US","state":"NM","display_address":["413 2nd St SW","Albuquerque, NM 87102"]},"phone":"+15059261636","display_phone":"(505) 926-1636","distance":5568.551294291268},{"id":"J6-zWf2f6p1qqEZW5V7AAA","alias":"castle-coffee-albuquerque-3","name":"Castle Coffee","image_url":"https://s3-media2.fl.yelpcdn.com/bphoto/WROZaL49Xs4Y8u8TDBCqyQ/o.jpg","is_closed":false,"url":"https://www.yelp.com/biz/castle-coffee-albuquerque-3?adjust_creative=gtw0huIWlUOiqWb7M4oBqQ&utm_campaign=yelp_api_v3&utm_medium=api_v3_business_search&utm_source=gtw0huIWlUOiqWb7M4oBqQ","review_count":95,"categories":[{"alias":"coffee","title":"Coffee & Tea"}],"rating":5,"coordinates":{"latitude":35.08763,"longitude":-106.65529},"transactions":[],"price":"$","location":{"address1":"727 Tijeras Ave NW","address2":null,"address3":"","city":"Albuquerque","zip_code":"87102","country":"US","state":"NM","display_address":["727 Tijeras Ave NW","Albuquerque, NM 87102"]},"phone":"+15055085271","display_phone":"(505) 508-5271","distance":5454.540444042318},{"id":"Tccm-fr2ft7E7r3CtNPIkA","alias":"villa-myriam-roasting-albuquerque","name":"Villa Myriam Roasting","image_url":"https://s3-media3.fl.yelpcdn.com/bphoto/kRNzeJNjxPo5A9ti7bnNmw/o.jpg","is_closed":false,"url":"https://www.yelp.com/biz/villa-myriam-roasting-albuquerque?adjust_creative=gtw0huIWlUOiqWb7M4oBqQ&utm_campaign=yelp_api_v3&utm_medium=api_v3_business_search&utm_source=gtw0huIWlUOiqWb7M4oBqQ","review_count":88,"categories":[{"alias":"coffeeroasteries","title":"Coffee Roasteries"},{"alias":"coffee","title":"Coffee & Tea"}],"rating":4.5,"coordinates":{"latitude":35.0882656,"longitude":-106.6456487},"transactions":["delivery","pickup"],"price":"$","location":{"address1":"573 Commercial St NE","address2":"","address3":null,"city":"Albuquerque","zip_code":"87102","country":"US","state":"NM","display_address":["573 Commercial St NE","Albuquerque, NM 87102"]},"phone":"+15053365652","display_phone":"(505) 336-5652","distance":4694.847487196819},{"id":"kZnnHDgszs7OSja7DfPgcA","alias":"satellite-coffee-albuquerque-7","name":"Satellite Coffee","image_url":"https://s3-media1.fl.yelpcdn.com/bphoto/sO9bH5_n-VURQown2EY8nw/o.jpg","is_closed":false,"url":"https://www.yelp.com/biz/satellite-coffee-albuquerque-7?adjust_creative=gtw0huIWlUOiqWb7M4oBqQ&utm_campaign=yelp_api_v3&utm_medium=api_v3_business_search&utm_source=gtw0huIWlUOiqWb7M4oBqQ","review_count":73,"categories":[{"alias":"coffee","title":"Coffee & Tea"},{"alias":"breakfast_brunch","title":"Breakfast & Brunch"},{"alias":"sandwiches","title":"Sandwiches"}],"rating":4.5,"coordinates":{"latitude":35.094485385133,"longitude":-106.62683226053},"transactions":["delivery","pickup"],"price":"$","location":{"address1":"1131 University Blvd","address2":"Ste A-B","address3":"","city":"Albuquerque","zip_code":"87106","country":"US","state":"NM","display_address":["1131 University Blvd","Ste A-B","Albuquerque, NM 87106"]},"phone":"+15052470662","display_phone":"(505) 247-0662","distance":3005.984801683083},{"id":"lm1GEQl6mKYn_BMCzT_tuA","alias":"sunday-service-motor-albuquerque","name":"Sunday Service Motor","image_url":"https://s3-media3.fl.yelpcdn.com/bphoto/_RVVthZOVpJmeKqXBjhZEQ/o.jpg","is_closed":false,"url":"https://www.yelp.com/biz/sunday-service-motor-albuquerque?adjust_creative=gtw0huIWlUOiqWb7M4oBqQ&utm_campaign=yelp_api_v3&utm_medium=api_v3_business_search&utm_source=gtw0huIWlUOiqWb7M4oBqQ","review_count":21,"categories":[{"alias":"coffee","title":"Coffee & Tea"},{"alias":"motorcyclerepair","title":"Motorcycle Repair"},{"alias":"beerbar","title":"Beer Bar"}],"rating":5,"coordinates":{"latitude":35.1119953,"longitude":-106.6466642},"transactions":[],"location":{"address1":"2701 4th St Nw","address2":"","address3":null,"city":"Albuquerque","zip_code":"87107","country":"US","state":"NM","display_address":["2701 4th St Nw","Albuquerque, NM 87107"]},"phone":"+15054610743","display_phone":"(505) 461-0743","distance":3738.220360618103},{"id":"7-fSD6UW5zsgFkXUFE5W1Q","alias":"the-daily-grind-albuquerque-2","name":"The Daily Grind","image_url":"https://s3-media2.fl.yelpcdn.com/bphoto/R-hsy0ZMNxtf7KSOp3H5hQ/o.jpg","is_closed":false,"url":"https://www.yelp.com/biz/the-daily-grind-albuquerque-2?adjust_creative=gtw0huIWlUOiqWb7M4oBqQ&utm_campaign=yelp_api_v3&utm_medium=api_v3_business_search&utm_source=gtw0huIWlUOiqWb7M4oBqQ","review_count":210,"categories":[{"alias":"coffee","title":"Coffee & Tea"},{"alias":"tradamerican","title":"American (Traditional)"},{"alias":"breakfast_brunch","title":"Breakfast & Brunch"}],"rating":3.5,"coordinates":{"latitude":35.1047219506085,"longitude":-106.596717618543},"transactions":["delivery"],"price":"$$","location":{"address1":"4360 Cutler Ave","address2":"Ste C","address3":"","city":"Albuquerque","zip_code":"87110","country":"US","state":"NM","display_address":["4360 Cutler Ave","Ste C","Albuquerque, NM 87110"]},"phone":"+15058838310","display_phone":"(505) 883-8310","distance":1440.4350359599916},{"id":"FsHJUfVV2mE8rB6TCnyNpQ","alias":"ihatov-bread-and-coffee-albuquerque","name":"Ihatov Bread and Coffee","image_url":"https://s3-media2.fl.yelpcdn.com/bphoto/iT2PFeIZOsSraV5Qi5PnqQ/o.jpg","is_closed":false,"url":"https://www.yelp.com/biz/ihatov-bread-and-coffee-albuquerque?adjust_creative=gtw0huIWlUOiqWb7M4oBqQ&utm_campaign=yelp_api_v3&utm_medium=api_v3_business_search&utm_source=gtw0huIWlUOiqWb7M4oBqQ","review_count":78,"categories":[{"alias":"coffee","title":"Coffee & Tea"},{"alias":"bakeries","title":"Bakeries"}],"rating":4.5,"coordinates":{"latitude":35.079752,"longitude":-106.606804},"transactions":["delivery"],"location":{"address1":"3400 Central Ave SE","address2":"","address3":null,"city":"Albuquerque","zip_code":"87106","country":"US","state":"NM","display_address":["3400 Central Ave SE","Albuquerque, NM 87106"]},"phone":"","display_phone":"","distance":3950.370753604787},{"id":"mZmLUMECjGOOcJdCf-RgFg","alias":"little-bear-coffee-albuquerque-2","name":"Little Bear Coffee","image_url":"https://s3-media3.fl.yelpcdn.com/bphoto/ID1S7i61oH6uY5wSLywZbg/o.jpg","is_closed":false,"url":"https://www.yelp.com/biz/little-bear-coffee-albuquerque-2?adjust_creative=gtw0huIWlUOiqWb7M4oBqQ&utm_campaign=yelp_api_v3&utm_medium=api_v3_business_search&utm_source=gtw0huIWlUOiqWb7M4oBqQ","review_count":69,"categories":[{"alias":"coffee","title":"Coffee & Tea"}],"rating":4.5,"coordinates":{"latitude":35.080846,"longitude":-106.609848},"transactions":["delivery"],"price":"$$","location":{"address1":"3123 Central Ave NE","address2":null,"address3":null,"city":"Albuquerque","zip_code":"87106","country":"US","state":"NM","display_address":["3123 Central Ave NE","Albuquerque, NM 87106"]},"phone":"+15053088290","display_phone":"(505) 308-8290","distance":3834.310329900615},{"id":"1qYOhdpSK0E81gNHenL_xA","alias":"donut-mart-albuquerque-8","name":"Donut Mart","image_url":"https://s3-media3.fl.yelpcdn.com/bphoto/kqP6VbtsXBxINu6Y50Nynw/o.jpg","is_closed":false,"url":"https://www.yelp.com/biz/donut-mart-albuquerque-8?adjust_creative=gtw0huIWlUOiqWb7M4oBqQ&utm_campaign=yelp_api_v3&utm_medium=api_v3_business_search&utm_source=gtw0huIWlUOiqWb7M4oBqQ","review_count":50,"categories":[{"alias":"donuts","title":"Donuts"},{"alias":"breakfast_brunch","title":"Breakfast & Brunch"},{"alias":"coffee","title":"Coffee & Tea"}],"rating":4,"coordinates":{"latitude":35.1314463998796,"longitude":-106.592268534374},"transactions":["delivery","pickup"],"price":"$","location":{"address1":"4501 Montgomery Blvd NE","address2":"","address3":"","city":"Albuquerque","zip_code":"87109","country":"US","state":"NM","display_address":["4501 Montgomery Blvd NE","Albuquerque, NM 87109"]},"phone":"+15052926278","display_phone":"(505) 292-6278","distance":2173.409237547282},{"id":"49Ew8j3p0cLR7h131RbNWg","alias":"the-brew-albuquerque","name":"The Brew","image_url":"https://s3-media3.fl.yelpcdn.com/bphoto/hQ52h47ngduuu_R90ZPdNA/o.jpg","is_closed":false,"url":"https://www.yelp.com/biz/the-brew-albuquerque?adjust_creative=gtw0huIWlUOiqWb7M4oBqQ&utm_campaign=yelp_api_v3&utm_medium=api_v3_business_search&utm_source=gtw0huIWlUOiqWb7M4oBqQ","review_count":143,"categories":[{"alias":"coffee","title":"Coffee & Tea"}],"rating":4.5,"coordinates":{"latitude":35.083739,"longitude":-106.651117},"transactions":["delivery"],"price":"$$","location":{"address1":"311 Gold SW","address2":"","address3":"","city":"Albuquerque","zip_code":"87102","country":"US","state":"NM","display_address":["311 Gold SW","Albuquerque, NM 87102"]},"phone":"+15053639453","display_phone":"(505) 363-9453","distance":5416.743305062488},{"id":"BVmSyzVliBaX8rY17TEzYw","alias":"the-ivy-tearoom-albuquerque-2","name":"The Ivy Tearoom","image_url":"https://s3-media1.fl.yelpcdn.com/bphoto/r3DVpgWErCVEpmlxVLUbnw/o.jpg","is_closed":false,"url":"https://www.yelp.com/biz/the-ivy-tearoom-albuquerque-2?adjust_creative=gtw0huIWlUOiqWb7M4oBqQ&utm_campaign=yelp_api_v3&utm_medium=api_v3_business_search&utm_source=gtw0huIWlUOiqWb7M4oBqQ","review_count":102,"categories":[{"alias":"cafes","title":"Cafes"},{"alias":"coffee","title":"Coffee & Tea"},{"alias":"tea","title":"Tea Rooms"}],"rating":4,"coordinates":{"latitude":35.181436,"longitude":-106.624428},"transactions":[],"price":"$$$","location":{"address1":"8830 4th St NW","address2":null,"address3":"","city":"Albuquerque","zip_code":"87114","country":"US","state":"NM","display_address":["8830 4th St NW","Albuquerque, NM 87114"]},"phone":"+15053888691","display_phone":"(505) 388-8691","distance":7542.766567711952},{"id":"tYwcL-i2Scp2Aj0ActGHlw","alias":"humble-coffee-company-albuquerque","name":"Humble Coffee Company","image_url":"https://s3-media3.fl.yelpcdn.com/bphoto/QSZ2_SozZtDtE1b5FBJurA/o.jpg","is_closed":false,"url":"https://www.yelp.com/biz/humble-coffee-company-albuquerque?adjust_creative=gtw0huIWlUOiqWb7M4oBqQ&utm_campaign=yelp_api_v3&utm_medium=api_v3_business_search&utm_source=gtw0huIWlUOiqWb7M4oBqQ","review_count":270,"categories":[{"alias":"coffee","title":"Coffee & Tea"}],"rating":4,"coordinates":{"latitude":35.087114,"longitude":-106.597496},"transactions":["delivery"],"price":"$$","location":{"address1":"4200 Lomas Blvd NE","address2":"Ste C","address3":"","city":"Albuquerque","zip_code":"87110","country":"US","state":"NM","display_address":["4200 Lomas Blvd NE","Ste C","Albuquerque, NM 87110"]},"phone":"+15052899909","display_phone":"(505) 289-9909","distance":3217.6226745976146},{"id":"QYHnpL4Jm-MaaPwwfMHsQA","alias":"olo-dessert-studio-albuquerque-2","name":"Olo Dessert Studio","image_url":"https://s3-media2.fl.yelpcdn.com/bphoto/2CzZlldrz23rCNY_lGCM7A/o.jpg","is_closed":false,"url":"https://www.yelp.com/biz/olo-dessert-studio-albuquerque-2?adjust_creative=gtw0huIWlUOiqWb7M4oBqQ&utm_campaign=yelp_api_v3&utm_medium=api_v3_business_search&utm_source=gtw0huIWlUOiqWb7M4oBqQ","review_count":121,"categories":[{"alias":"icecream","title":"Ice Cream & Frozen Yogurt"},{"alias":"bakeries","title":"Bakeries"},{"alias":"coffee","title":"Coffee & Tea"}],"rating":4.5,"coordinates":{"latitude":35.08050269138741,"longitude":-106.6076254},"transactions":["delivery","pickup"],"price":"$","location":{"address1":"3339 Central Ave NE","address2":"Ste C","address3":"","city":"Albuquerque","zip_code":"87106","country":"US","state":"NM","display_address":["3339 Central Ave NE","Ste C","Albuquerque, NM 87106"]},"phone":"+15057504656","display_phone":"(505) 750-4656","distance":3876.704271121661},{"id":"N4cy3_RasVY12xPdPGeI8A","alias":"abq-burrito-albuquerque","name":"ABQ Burrito","image_url":"https://s3-media1.fl.yelpcdn.com/bphoto/Haxqx4nIwpxA55jsshw4Zw/o.jpg","is_closed":false,"url":"https://www.yelp.com/biz/abq-burrito-albuquerque?adjust_creative=gtw0huIWlUOiqWb7M4oBqQ&utm_campaign=yelp_api_v3&utm_medium=api_v3_business_search&utm_source=gtw0huIWlUOiqWb7M4oBqQ","review_count":48,"categories":[{"alias":"mexican","title":"Mexican"},{"alias":"breakfast_brunch","title":"Breakfast & Brunch"},{"alias":"coffee","title":"Coffee & Tea"}],"rating":4,"coordinates":{"latitude":35.1162492149,"longitude":-106.613605387},"transactions":["delivery","pickup"],"location":{"address1":"2930 Candelaria Rd NE","address2":null,"address3":"","city":"Albuquerque","zip_code":"87107","country":"US","state":"NM","display_address":["2930 Candelaria Rd NE","Albuquerque, NM 87107"]},"phone":"+15056395528","display_phone":"(505) 639-5528","distance":717.3633999902028},{"id":"X49ZNg98FM6YeKqCXU2L-Q","alias":"kaps-coffee-shop-and-diner-albuquerque","name":"Kap's Coffee Shop and Diner","image_url":"https://s3-media2.fl.yelpcdn.com/bphoto/jxn4Dwy0x561U-KA8HMekw/o.jpg","is_closed":false,"url":"https://www.yelp.com/biz/kaps-coffee-shop-and-diner-albuquerque?adjust_creative=gtw0huIWlUOiqWb7M4oBqQ&utm_campaign=yelp_api_v3&utm_medium=api_v3_business_search&utm_source=gtw0huIWlUOiqWb7M4oBqQ","review_count":161,"categories":[{"alias":"coffee","title":"Coffee & Tea"},{"alias":"breakfast_brunch","title":"Breakfast & Brunch"},{"alias":"diners","title":"Diners"}],"rating":4.5,"coordinates":{"latitude":35.077527,"longitude":-106.581588},"transactions":["delivery"],"price":"$","location":{"address1":"5801 Central Ave SE","address2":"","address3":"","city":"Albuquerque","zip_code":"87108","country":"US","state":"NM","display_address":["5801 Central Ave SE","Albuquerque, NM 87108"]},"phone":"+15052329658","display_phone":"(505) 232-9658","distance":4746.070034144997},{"id":"e4LUy3TY4HtYyMV_OsOITg","alias":"two-boys-donuts-albuquerque","name":"Two Boys Donuts","image_url":"https://s3-media1.fl.yelpcdn.com/bphoto/7caL_kcwPI7H0D921BH13A/o.jpg","is_closed":false,"url":"https://www.yelp.com/biz/two-boys-donuts-albuquerque?adjust_creative=gtw0huIWlUOiqWb7M4oBqQ&utm_campaign=yelp_api_v3&utm_medium=api_v3_business_search&utm_source=gtw0huIWlUOiqWb7M4oBqQ","review_count":185,"categories":[{"alias":"donuts","title":"Donuts"},{"alias":"coffee","title":"Coffee & Tea"},{"alias":"bakeries","title":"Bakeries"}],"rating":4.5,"coordinates":{"latitude":35.1755254966,"longitude":-106.575383474},"transactions":["delivery","pickup"],"location":{"address1":"6400 Holly Ave NE","address2":"Ste H","address3":"","city":"Albuquerque","zip_code":"87113","country":"US","state":"NM","display_address":["6400 Holly Ave NE","Ste H","Albuquerque, NM 87113"]},"phone":"+15053020102","display_phone":"(505) 302-0102","distance":7241.712383825533},{"id":"aPmcX1b2Ld3arsRRKAdXvw","alias":"rise-roast-albuquerque","name":"Rise + Roast","image_url":"https://s3-media2.fl.yelpcdn.com/bphoto/d1i15LVxNVN2Hj9Yr8k3vw/o.jpg","is_closed":false,"url":"https://www.yelp.com/biz/rise-roast-albuquerque?adjust_creative=gtw0huIWlUOiqWb7M4oBqQ&utm_campaign=yelp_api_v3&utm_medium=api_v3_business_search&utm_source=gtw0huIWlUOiqWb7M4oBqQ","review_count":201,"categories":[{"alias":"donuts","title":"Donuts"},{"alias":"coffee","title":"Coffee & Tea"}],"rating":4.5,"coordinates":{"latitude":35.06858289716765,"longitude":-106.53278347104818},"transactions":["delivery"],"price":"$$","location":{"address1":"401 Eubank Blvd SE","address2":"Unit E","address3":null,"city":"Albuquerque","zip_code":"87123","country":"US","state":"NM","display_address":["401 Eubank Blvd SE","Unit E","Albuquerque, NM 87123"]},"phone":"+15052071000","display_phone":"(505) 207-1000","distance":8435.380773409455},{"id":"Kjpflx2nZSymOm9exndTiA","alias":"rust-is-gold-coffee-albuquerque","name":"Rust Is Gold Coffee","image_url":"https://s3-media4.fl.yelpcdn.com/bphoto/7_TnulAdACyIF3qBWBbXZQ/o.jpg","is_closed":false,"url":"https://www.yelp.com/biz/rust-is-gold-coffee-albuquerque?adjust_creative=gtw0huIWlUOiqWb7M4oBqQ&utm_campaign=yelp_api_v3&utm_medium=api_v3_business_search&utm_source=gtw0huIWlUOiqWb7M4oBqQ","review_count":67,"categories":[{"alias":"coffee","title":"Coffee & Tea"}],"rating":4.5,"coordinates":{"latitude":35.12446,"longitude":-106.5326054},"transactions":["delivery"],"price":"$$","location":{"address1":"3732 Eubank Blvd","address2":"Ste 1A","address3":"","city":"Albuquerque","zip_code":"87111","country":"US","state":"NM","display_address":["3732 Eubank Blvd","Ste 1A","Albuquerque, NM 87111"]},"phone":"+15055732880","display_phone":"(505) 573-2880","distance":6733.89690127191},{"id":"xG-XZ5jT0gox7ux9S_qKsQ","alias":"java-joes-albuquerque","name":"Java Joe's","image_url":"https://s3-media3.fl.yelpcdn.com/bphoto/cNtIS5kwwP6yhzaFDOa6dQ/o.jpg","is_closed":false,"url":"https://www.yelp.com/biz/java-joes-albuquerque?adjust_creative=gtw0huIWlUOiqWb7M4oBqQ&utm_campaign=yelp_api_v3&utm_medium=api_v3_business_search&utm_source=gtw0huIWlUOiqWb7M4oBqQ","review_count":283,"categories":[{"alias":"coffee","title":"Coffee & Tea"},{"alias":"cafes","title":"Cafes"},{"alias":"breakfast_brunch","title":"Breakfast & Brunch"}],"rating":4,"coordinates":{"latitude":35.08505,"longitude":-106.65796},"transactions":["delivery"],"price":"$","location":{"address1":"906 Park Ave SW","address2":"","address3":"","city":"Albuquerque","zip_code":"87102","country":"US","state":"NM","display_address":["906 Park Ave SW","Albuquerque, NM 87102"]},"phone":"+15057651514","display_phone":"(505) 765-1514","distance":5812.298912199947},{"id":"FIOjJN-QT8tjOXAdpDT3dw","alias":"novel-point-coffee-albuquerque","name":"Novel Point Coffee","image_url":"https://s3-media4.fl.yelpcdn.com/bphoto/Eq3RK_fkXYPO0M3ts_PsDA/o.jpg","is_closed":false,"url":"https://www.yelp.com/biz/novel-point-coffee-albuquerque?adjust_creative=gtw0huIWlUOiqWb7M4oBqQ&utm_campaign=yelp_api_v3&utm_medium=api_v3_business_search&utm_source=gtw0huIWlUOiqWb7M4oBqQ","review_count":21,"categories":[{"alias":"coffee","title":"Coffee & Tea"}],"rating":5,"coordinates":{"latitude":35.08978386122557,"longitude":-106.64677624753637},"transactions":["delivery"],"location":{"address1":"700 1st St NW","address2":null,"address3":"","city":"Albuquerque","zip_code":"87102","country":"US","state":"NM","display_address":["700 1st St NW","Albuquerque, NM 87102"]},"phone":"","display_phone":"","distance":4687.072619881452},{"id":"hXk8u0QmzxmvgddD6L9vtw","alias":"michael-thomas-coffee-albuquerque-3","name":"Michael Thomas Coffee","image_url":"https://s3-media1.fl.yelpcdn.com/bphoto/mcXYB9r73nTIShW_h2zkGA/o.jpg","is_closed":false,"url":"https://www.yelp.com/biz/michael-thomas-coffee-albuquerque-3?adjust_creative=gtw0huIWlUOiqWb7M4oBqQ&utm_campaign=yelp_api_v3&utm_medium=api_v3_business_search&utm_source=gtw0huIWlUOiqWb7M4oBqQ","review_count":141,"categories":[{"alias":"coffee","title":"Coffee & Tea"}],"rating":4.5,"coordinates":{"latitude":35.0635299682617,"longitude":-106.604507446289},"transactions":["delivery"],"price":"$$","location":{"address1":"1111 Carlisle Blvd SE","address2":"","address3":"","city":"Albuquerque","zip_code":"87106","country":"US","state":"NM","display_address":["1111 Carlisle Blvd SE","Albuquerque, NM 87106"]},"phone":"+15052553330","display_phone":"(505) 255-3330","distance":5782.8881895183},{"id":"6TRguKaSS2Tda-CIA5wbsA","alias":"napoli-coffee-albuquerque","name":"Napoli Coffee","image_url":"https://s3-media4.fl.yelpcdn.com/bphoto/MNxt1v0XUdK7bXfmoD3D1g/o.jpg","is_closed":false,"url":"https://www.yelp.com/biz/napoli-coffee-albuquerque?adjust_creative=gtw0huIWlUOiqWb7M4oBqQ&utm_campaign=yelp_api_v3&utm_medium=api_v3_business_search&utm_source=gtw0huIWlUOiqWb7M4oBqQ","review_count":160,"categories":[{"alias":"coffee","title":"Coffee & Tea"},{"alias":"sandwiches","title":"Sandwiches"},{"alias":"breakfast_brunch","title":"Breakfast & Brunch"}],"rating":4.5,"coordinates":{"latitude":35.1093900011873,"longitude":-106.610571406782},"transactions":["delivery"],"price":"$","location":{"address1":"3035 Menaul Blvd NE","address2":null,"address3":"","city":"Albuquerque","zip_code":"87107","country":"US","state":"NM","display_address":["3035 Menaul Blvd NE","Albuquerque, NM 87107"]},"phone":"+15058845454","display_phone":"(505) 884-5454","distance":790.8586294369418},{"id":"ENXg3w0Ra2rPoa3_3t7cCA","alias":"duggans-coffee-albuquerque","name":"Duggan's Coffee","image_url":"https://s3-media3.fl.yelpcdn.com/bphoto/C6394v_ZeSeKEMlHogdJhg/o.jpg","is_closed":false,"url":"https://www.yelp.com/biz/duggans-coffee-albuquerque?adjust_creative=gtw0huIWlUOiqWb7M4oBqQ&utm_campaign=yelp_api_v3&utm_medium=api_v3_business_search&utm_source=gtw0huIWlUOiqWb7M4oBqQ","review_count":88,"categories":[{"alias":"coffee","title":"Coffee & Tea"},{"alias":"breakfast_brunch","title":"Breakfast & Brunch"}],"rating":4.5,"coordinates":{"latitude":35.0775061,"longitude":-106.6217256},"transactions":["delivery"],"price":"$","location":{"address1":"2227 Lead Ave SE","address2":"","address3":"","city":"Albuquerque","zip_code":"87106","country":"US","state":"NM","display_address":["2227 Lead Ave SE","Albuquerque, NM 87106"]},"phone":"+15053127257","display_phone":"(505) 312-7257","distance":4437.298457022693},{"id":"iGHqbpjE-TJFKlPebCsASw","alias":"whiting-coffee-albuquerque","name":"Whiting Coffee","image_url":"https://s3-media3.fl.yelpcdn.com/bphoto/TlgiXQgXaJtcDtkXKz28ew/o.jpg","is_closed":false,"url":"https://www.yelp.com/biz/whiting-coffee-albuquerque?adjust_creative=gtw0huIWlUOiqWb7M4oBqQ&utm_campaign=yelp_api_v3&utm_medium=api_v3_business_search&utm_source=gtw0huIWlUOiqWb7M4oBqQ","review_count":28,"categories":[{"alias":"coffeeroasteries","title":"Coffee Roasteries"}],"rating":4.5,"coordinates":{"latitude":35.15382783131679,"longitude":-106.60221555521196},"transactions":[],"price":"$$","location":{"address1":"3700 Osuna Rd Ne","address2":"Ste 510","address3":"","city":"Albuquerque","zip_code":"87109","country":"US","state":"NM","display_address":["3700 Osuna Rd Ne","Ste 510","Albuquerque, NM 87109"]},"phone":"+15053449144","display_phone":"(505) 344-9144","distance":4292.616450236197},{"id":"r0u3bo9x89PhsdFUgsQ65Q","alias":"remedy-coffee-albuquerque","name":"Remedy Coffee","image_url":"https://s3-media3.fl.yelpcdn.com/bphoto/MioErDo1BirsLNOCry5GHw/o.jpg","is_closed":false,"url":"https://www.yelp.com/biz/remedy-coffee-albuquerque?adjust_creative=gtw0huIWlUOiqWb7M4oBqQ&utm_campaign=yelp_api_v3&utm_medium=api_v3_business_search&utm_source=gtw0huIWlUOiqWb7M4oBqQ","review_count":58,"categories":[{"alias":"coffee","title":"Coffee & Tea"}],"rating":4.5,"coordinates":{"latitude":35.09305,"longitude":-106.66715},"transactions":["delivery"],"location":{"address1":"1816 Lomas Blvd NW","address2":"Ste A","address3":"","city":"Albuquerque","zip_code":"87106","country":"US","state":"NM","display_address":["1816 Lomas Blvd NW","Ste A","Albuquerque, NM 87106"]},"phone":"+15052193819","display_phone":"(505) 219-3819","distance":6111.2778392520195},{"id":"YZ0-iqWhPpyIfQyU8_ltzA","alias":"michael-thomas-coffee-roaster-albuquerque","name":"Michael Thomas Coffee Roaster","image_url":"https://s3-media4.fl.yelpcdn.com/bphoto/wnPLxLXD0xiyCyPHWKOJ6w/o.jpg","is_closed":false,"url":"https://www.yelp.com/biz/michael-thomas-coffee-roaster-albuquerque?adjust_creative=gtw0huIWlUOiqWb7M4oBqQ&utm_campaign=yelp_api_v3&utm_medium=api_v3_business_search&utm_source=gtw0huIWlUOiqWb7M4oBqQ","review_count":181,"categories":[{"alias":"coffee","title":"Coffee & Tea"},{"alias":"coffeeroasteries","title":"Coffee Roasteries"}],"rating":4,"coordinates":{"latitude":35.0790070103088,"longitude":-106.609308386764},"transactions":["delivery"],"price":"$$","location":{"address1":"202 Bryn Mawr SE","address2":"","address3":"","city":"Albuquerque","zip_code":"87106","country":"US","state":"NM","display_address":["202 Bryn Mawr SE","Albuquerque, NM 87106"]},"phone":"+15055047078","display_phone":"(505) 504-7078","distance":4052.0544575114377},{"id":"dKjla3wxcPkUjX-gSHSAxg","alias":"bristol-doughnut-albuquerque-7","name":"Bristol Doughnut","image_url":"https://s3-media3.fl.yelpcdn.com/bphoto/Zlbj_hIH3UgtYlc4EJkKig/o.jpg","is_closed":false,"url":"https://www.yelp.com/biz/bristol-doughnut-albuquerque-7?adjust_creative=gtw0huIWlUOiqWb7M4oBqQ&utm_campaign=yelp_api_v3&utm_medium=api_v3_business_search&utm_source=gtw0huIWlUOiqWb7M4oBqQ","review_count":155,"categories":[{"alias":"coffee","title":"Coffee & Tea"},{"alias":"donuts","title":"Donuts"},{"alias":"bakeries","title":"Bakeries"}],"rating":4.5,"coordinates":{"latitude":35.1240326,"longitude":-106.5254112},"transactions":["delivery"],"price":"$","location":{"address1":"10301 Comanche Rd NE","address2":"Unit 7","address3":"","city":"Albuquerque","zip_code":"87111","country":"US","state":"NM","display_address":["10301 Comanche Rd NE","Unit 7","Albuquerque, NM 87111"]},"phone":"+15055960312","display_phone":"(505) 596-0312","distance":7375.045956598484},{"id":"F9DI0GBqJl9XbiRaLRzNqQ","alias":"barelas-coffee-house-albuquerque","name":"Barelas Coffee House","image_url":"https://s3-media3.fl.yelpcdn.com/bphoto/mmxX3k13odJd9LV5wVZUgw/o.jpg","is_closed":false,"url":"https://www.yelp.com/biz/barelas-coffee-house-albuquerque?adjust_creative=gtw0huIWlUOiqWb7M4oBqQ&utm_campaign=yelp_api_v3&utm_medium=api_v3_business_search&utm_source=gtw0huIWlUOiqWb7M4oBqQ","review_count":252,"categories":[{"alias":"coffee","title":"Coffee & Tea"},{"alias":"newmexican","title":"New Mexican Cuisine"},{"alias":"desserts","title":"Desserts"}],"rating":4,"coordinates":{"latitude":35.0710728,"longitude":-106.6539828},"transactions":[],"price":"$$","location":{"address1":"1502 4th St SW","address2":"","address3":"","city":"Albuquerque","zip_code":"87102","country":"US","state":"NM","display_address":["1502 4th St SW","Albuquerque, NM 87102"]},"phone":"+15058437577","display_phone":"(505) 843-7577","distance":6596.973606796161},{"id":"1w1I_DaMUjpG08cMHrzPww","alias":"blackbird-coffee-house-albuquerque","name":"Blackbird Coffee House","image_url":"https://s3-media1.fl.yelpcdn.com/bphoto/7JtaepF2zvoPw2fXAKsm7A/o.jpg","is_closed":false,"url":"https://www.yelp.com/biz/blackbird-coffee-house-albuquerque?adjust_creative=gtw0huIWlUOiqWb7M4oBqQ&utm_campaign=yelp_api_v3&utm_medium=api_v3_business_search&utm_source=gtw0huIWlUOiqWb7M4oBqQ","review_count":134,"categories":[{"alias":"coffee","title":"Coffee & Tea"}],"rating":4.5,"coordinates":{"latitude":35.0958054311719,"longitude":-106.66874640829},"transactions":["delivery"],"price":"$$","location":{"address1":"206 San Felipe NW","address2":"","address3":"","city":"Albuquerque","zip_code":"87104","country":"US","state":"NM","display_address":["206 San Felipe NW","Albuquerque, NM 87104"]},"phone":"+15059446789","display_phone":"(505) 944-6789","distance":6124.193838072436},{"id":"qBzb6TaUEOErDX6LZVv9Ww","alias":"rustic-bubble-tea-cafe-albuquerque","name":"Rustic Bubble Tea Cafe","image_url":"https://s3-media3.fl.yelpcdn.com/bphoto/5LbvnA-VSavQKDQddAZgZw/o.jpg","is_closed":false,"url":"https://www.yelp.com/biz/rustic-bubble-tea-cafe-albuquerque?adjust_creative=gtw0huIWlUOiqWb7M4oBqQ&utm_campaign=yelp_api_v3&utm_medium=api_v3_business_search&utm_source=gtw0huIWlUOiqWb7M4oBqQ","review_count":178,"categories":[{"alias":"bubbletea","title":"Bubble Tea"},{"alias":"coffee","title":"Coffee & Tea"},{"alias":"juicebars","title":"Juice Bars & Smoothies"}],"rating":4.5,"coordinates":{"latitude":35.085849,"longitude":-106.513716},"transactions":["pickup","delivery"],"price":"$","location":{"address1":"840 Juan Tabo Blvd Ne B","address2":"Ste B","address3":"","city":"Albuquerque","zip_code":"87123","country":"US","state":"NM","display_address":["840 Juan Tabo Blvd Ne B","Ste B","Albuquerque, NM 87123"]},"phone":"+15055081813","display_phone":"(505) 508-1813","distance":8995.778312793962},{"id":"5eM0RbLh6GWqcmm4JknbDw","alias":"cinnamon-sugar-and-spice-cafe-albuquerque-2","name":"Cinnamon Sugar and Spice Cafe","image_url":"https://s3-media1.fl.yelpcdn.com/bphoto/X1EU3MShHIJlQiUYi3XoVw/o.jpg","is_closed":false,"url":"https://www.yelp.com/biz/cinnamon-sugar-and-spice-cafe-albuquerque-2?adjust_creative=gtw0huIWlUOiqWb7M4oBqQ&utm_campaign=yelp_api_v3&utm_medium=api_v3_business_search&utm_source=gtw0huIWlUOiqWb7M4oBqQ","review_count":340,"categories":[{"alias":"breakfast_brunch","title":"Breakfast & Brunch"},{"alias":"coffee","title":"Coffee & Tea"},{"alias":"internetcafe","title":"Internet Cafes"}],"rating":4,"coordinates":{"latitude":35.146723,"longitude":-106.524491},"transactions":["delivery"],"price":"$$","location":{"address1":"5809 Juan Tabo NE","address2":"Ste A","address3":"","city":"Albuquerque","zip_code":"87111","country":"US","state":"NM","display_address":["5809 Juan Tabo NE","Ste A","Albuquerque, NM 87111"]},"phone":"+15054922119","display_phone":"(505) 492-2119","distance":8176.375143012286},{"id":"LHfgI4hsW7ZL-QlUlKOnjA","alias":"kaufman-s-coffee-and-bagels-albuquerque","name":"Kaufman’s Coffee & Bagels","image_url":"https://s3-media2.fl.yelpcdn.com/bphoto/-ADZ5OXItWtNslm_Sc4iNw/o.jpg","is_closed":false,"url":"https://www.yelp.com/biz/kaufman-s-coffee-and-bagels-albuquerque?adjust_creative=gtw0huIWlUOiqWb7M4oBqQ&utm_campaign=yelp_api_v3&utm_medium=api_v3_business_search&utm_source=gtw0huIWlUOiqWb7M4oBqQ","review_count":50,"categories":[{"alias":"bagels","title":"Bagels"},{"alias":"coffee","title":"Coffee & Tea"}],"rating":4.5,"coordinates":{"latitude":35.09470363168971,"longitude":-106.67663128463796},"transactions":[],"location":{"address1":"2500 Central Ave SW","address2":"Ste B 900","address3":null,"city":"Albuquerque","zip_code":"87104","country":"US","state":"NM","display_address":["2500 Central Ave SW","Ste B 900","Albuquerque, NM 87104"]},"phone":"+15023611734","display_phone":"(502) 361-1734","distance":6839.769112675857},{"id":"sADA59iOdOIItePw3NnSYQ","alias":"marigold-café-albuquerque-2","name":"Marigold Café","image_url":"https://s3-media2.fl.yelpcdn.com/bphoto/5ADcTJMe2mLZFT7hKUxocw/o.jpg","is_closed":false,"url":"https://www.yelp.com/biz/marigold-caf%C3%A9-albuquerque-2?adjust_creative=gtw0huIWlUOiqWb7M4oBqQ&utm_campaign=yelp_api_v3&utm_medium=api_v3_business_search&utm_source=gtw0huIWlUOiqWb7M4oBqQ","review_count":80,"categories":[{"alias":"indpak","title":"Indian"},{"alias":"coffee","title":"Coffee & Tea"},{"alias":"tradamerican","title":"American (Traditional)"}],"rating":4.5,"coordinates":{"latitude":35.1718968,"longitude":-106.5868096},"transactions":["delivery","pickup"],"price":"$$","location":{"address1":"5161 Lang Ave NE","address2":"Ste C","address3":"","city":"Albuquerque","zip_code":"87109","country":"US","state":"NM","display_address":["5161 Lang Ave NE","Ste C","Albuquerque, NM 87109"]},"phone":"+15054334427","display_phone":"(505) 433-4427","distance":6554.205593615589},{"id":"UXrEn3Yt4QzxBSVaIgg4kA","alias":"cheese-and-coffee-uptown-albuquerque","name":"Cheese & Coffee Uptown","image_url":"https://s3-media3.fl.yelpcdn.com/bphoto/DYFKAjtc68QefnBU3lBkdg/o.jpg","is_closed":false,"url":"https://www.yelp.com/biz/cheese-and-coffee-uptown-albuquerque?adjust_creative=gtw0huIWlUOiqWb7M4oBqQ&utm_campaign=yelp_api_v3&utm_medium=api_v3_business_search&utm_source=gtw0huIWlUOiqWb7M4oBqQ","review_count":113,"categories":[{"alias":"coffee","title":"Coffee & Tea"}],"rating":4.5,"coordinates":{"latitude":35.1106622065917,"longitude":-106.569157651521},"transactions":["delivery"],"price":"$","location":{"address1":"2679 Louisiana Blvd NE","address2":"","address3":"","city":"Albuquerque","zip_code":"87110","country":"US","state":"NM","display_address":["2679 Louisiana Blvd NE","Albuquerque, NM 87110"]},"phone":"+15058831226","display_phone":"(505) 883-1226","distance":3373.0538775233913},{"id":"lby1vHLOEWd_ZgQ7SubsIQ","alias":"new-mexico-piñon-coffee-albuquerque-6","name":"New Mexico Piñon Coffee","image_url":"https://s3-media3.fl.yelpcdn.com/bphoto/TAf0k3GkMp6TngdQZGPoIQ/o.jpg","is_closed":false,"url":"https://www.yelp.com/biz/new-mexico-pi%C3%B1on-coffee-albuquerque-6?adjust_creative=gtw0huIWlUOiqWb7M4oBqQ&utm_campaign=yelp_api_v3&utm_medium=api_v3_business_search&utm_source=gtw0huIWlUOiqWb7M4oBqQ","review_count":36,"categories":[{"alias":"coffeeroasteries","title":"Coffee Roasteries"}],"rating":4,"coordinates":{"latitude":35.1234638,"longitude":-106.6153535},"transactions":[],"price":"$$","location":{"address1":"2420 Comanche Rd NE","address2":"Bldg D2","address3":"","city":"Albuquerque","zip_code":"87107","country":"US","state":"NM","display_address":["2420 Comanche Rd NE","Bldg D2","Albuquerque, NM 87107"]},"phone":"+15052981964","display_phone":"(505) 298-1964","distance":1253.9397817049353},{"id":"xethWxy2IplgtDMQUsJMuQ","alias":"new-mexico-tea-company-albuquerque","name":"New Mexico Tea Company","image_url":"https://s3-media2.fl.yelpcdn.com/bphoto/iAAzEA02FMyWTvL7blCu3A/o.jpg","is_closed":false,"url":"https://www.yelp.com/biz/new-mexico-tea-company-albuquerque?adjust_creative=gtw0huIWlUOiqWb7M4oBqQ&utm_campaign=yelp_api_v3&utm_medium=api_v3_business_search&utm_source=gtw0huIWlUOiqWb7M4oBqQ","review_count":113,"categories":[{"alias":"coffee","title":"Coffee & Tea"},{"alias":"tea","title":"Tea Rooms"},{"alias":"herbsandspices","title":"Herbs & Spices"}],"rating":4.5,"coordinates":{"latitude":35.0957446,"longitude":-106.6586842},"transactions":["delivery"],"price":"$$","location":{"address1":"1131 Mountain Rd NW","address2":"","address3":"","city":"Albuquerque","zip_code":"87102","country":"US","state":"NM","display_address":["1131 Mountain Rd NW","Albuquerque, NM 87102"]},"phone":"+15059622137","display_phone":"(505) 962-2137","distance":5281.108907608508},{"id":"cuoWAnVbYkp9aqBosJlgdA","alias":"limonata-albuquerque-2","name":"Limonata","image_url":"https://s3-media1.fl.yelpcdn.com/bphoto/dflSg23xzkzKUiAGmKXZMQ/o.jpg","is_closed":false,"url":"https://www.yelp.com/biz/limonata-albuquerque-2?adjust_creative=gtw0huIWlUOiqWb7M4oBqQ&utm_campaign=yelp_api_v3&utm_medium=api_v3_business_search&utm_source=gtw0huIWlUOiqWb7M4oBqQ","review_count":172,"categories":[{"alias":"coffee","title":"Coffee & Tea"},{"alias":"juicebars","title":"Juice Bars & Smoothies"},{"alias":"creperies","title":"Creperies"}],"rating":4,"coordinates":{"latitude":35.0789351,"longitude":-106.6091516},"transactions":["delivery"],"price":"$$","location":{"address1":"3222 Silver Ave SE","address2":"","address3":"","city":"Albuquerque","zip_code":"87106","country":"US","state":"NM","display_address":["3222 Silver Ave SE","Albuquerque, NM 87106"]},"phone":"+15052660607","display_phone":"(505) 266-0607","distance":4053.8461527971544},{"id":"wTeRoF3YCQHi4M1NH-tL1w","alias":"sweet-cup-espresso-and-boba-bar-albuquerque","name":"Sweet Cup Espresso & Boba Bar","image_url":"https://s3-media2.fl.yelpcdn.com/bphoto/6I5O0eQga0G3qayQLOpN7w/o.jpg","is_closed":false,"url":"https://www.yelp.com/biz/sweet-cup-espresso-and-boba-bar-albuquerque?adjust_creative=gtw0huIWlUOiqWb7M4oBqQ&utm_campaign=yelp_api_v3&utm_medium=api_v3_business_search&utm_source=gtw0huIWlUOiqWb7M4oBqQ","review_count":125,"categories":[{"alias":"coffee","title":"Coffee & Tea"},{"alias":"bubbletea","title":"Bubble Tea"},{"alias":"desserts","title":"Desserts"}],"rating":4,"coordinates":{"latitude":35.12322,"longitude":-106.5514199},"transactions":["delivery"],"price":"$$","location":{"address1":"3517 Wyoming Blvd NE","address2":"Ste A","address3":"","city":"Albuquerque","zip_code":"87111","country":"US","state":"NM","display_address":["3517 Wyoming Blvd NE","Ste A","Albuquerque, NM 87111"]},"phone":"+15053612610","display_phone":"(505) 361-2610","distance":5034.442687915314}],"total":243,"region":{"center":{"longitude":-106.6058349609375,"latitude":35.11524107648647}}}